restaurant_name,name_nepali,longitude,latitude,address_street,address_city,address_housenumber,address_postcode,phone,website,email,cuisine_type,star_rating,opening_hours,wheelchair_accessible,internet_access,air_conditioning,outdoor_seating,indoor_seating,smoking_area,diet:vegetarian,diet:vegan,diet:gluten_free,operator,capacity,osm_id,check_date
Lake View Resort,लेक भ्यु रिसोर्ट,83.9623449,28.2048024,,,,,061-461477,https://www.lakeviewpokhara.com/,,,,,,wlan,,,,,,,,Lake View Resort,,way/220704655,
Chinese Garden Restaurant,चाइनिज गार्देन रेस्टुरेन्ट,83.9640604,28.2044785,,,,,,,,chinese,5,,no,yes,,,,yes,,,,,,way/307258491,
New Marwadi Restaurat Pure Vegetarian,न्यु मार्बाडी रेष्टुरेन्ट पियोर साकाहारी,83.9597043,28.2064726,,,,,,,,regional,,,,,,,,,only,,,,,way/307258503,
Gurans Kitchen,गुरास किचेन,83.9597849,28.2092507,,,,,,,,asian,,,,,,,,,,,,,,way/403841419,
Lakewood Pizzeria,,83.9585724,28.2169104,,,,,,,,,,,no,,no,yes,yes,outside,,,,,,way/407025470,
,,83.9557725,28.2114781,,,,,,,,,,,,,,,,,,,,,,way/415115120,
Alchemy,,83.9574109,28.2130729,,,,,,,,,,,,,,,,,,,,,,way/415115146,
,,83.9585605,28.2094497,,,,,,,7kalu86@gmail.com,,,,,,,,,,,,,,,way/419645367,
hotel grand holiday,,83.9627715,28.2056263,,,,,061-462967,https://hotelgrandholiday.com/,,,,,,,,,,,,,,,,way/420238919,
Hari Korean Restaurant,,83.9620367,28.2060094,,,,,061466397,,,,,,,,,,,,,,,,,way/420239218,
med5 Restaurant,,83.9621728,28.2049801,,,,,061-467796,,,mediterranean,,Mo-Su 12:00-22:00,,,,,,,,,,,,way/486538115,
Hungry Eye,हंग्री आई,83.9575283,28.2079854,,,,,061-463096,www.hotellandmarkpokhara.com,,regional;western;indian,,06:00-18:00,,,,,,,,,,,,node/568514900,
Elegant View,इलीजेन्ट भिउ,83.9566693,28.2105075,,,,,,,,regional,,,,,,,,,,,,,,node/568542788,
Triple J,,83.9576788,28.2181452,,,,,,,,tibetan;nepalese,,,,,no,yes,yes,yes,,,,,,way/922509018,
Blue Diamond Restaurant,ब्लु डायमन्ड रेस्टुरेन्त,83.9629221,28.2042418,,,,,,,,regional,,,,,,,,,,,,,,node/973821284,
Annapurna Garden Cafe and Lounge,,83.9576756,28.2174153,Gantavya Marga,,,,+977 980-2833233,,,international;bar;coffee,,Mo-Sa 10:00-02:00,limited,,no,yes,yes,outside,,,,,,way/1350677277,
Pokhara Steak House,पोखरा इस्टिक हाउस,83.9576238,28.2141422,,,,,,http://www.pokharasteakhouse.com,,,,,,,,,,,,,,,,node/1352860978,
Saru Khaja Ghar,सरु लोकल रेस्टुरेन्ट,83.9558113,28.2123512,,,,,,,,local,,,,,,,,,,,,,,node/1366435128,
Sun Welcome Restaurant,सन ओएल्कम रेस्टुरेन्ट,83.9587102,28.2188905,,,,,,,,burger;international;breakfast;indian;curry,,,limited,,no,yes,yes,yes,,,,,,node/1366436403,
Tequila Dance and Restaurant Bar,टक़ुइला बार,83.9570628,28.2111115,,,,,,,,,,,,,,,,,,,,,,node/1555308323,
Lemongrass Restaurant,लेमोन ग्रास रेस्टुरेन्ट,83.9585267,28.2187489,,,,,,,,,,,limited,,no,no,yes,yes,,,,,,node/1555308333,
Rice Bowl Restaurant,राइस बउल रेस्टुरेन्ट,83.9568901,28.2097982,,,,,,,,,,,,,,,,,,,,,,node/1555308347,
Tea Time Bamboostan,टी टाईम ब्याम्बोस्तान,83.9572861,28.2119847,,,,,,bamboostancafe.com,,,,06:00-22:00,,,,,,,,,,,,node/2086875765,
Mike's Restaurant,माइक्स रेस्टुरेन्ट,83.9554685,28.2121541,,,,,,,,,,,,,,,,,,,,,,node/2086912183,
KTM Thakali,काठमाडौँ थकाली,83.9591156,28.2081961,,,,,,,,regional,,,,,,,,,,,,,,node/2087062615,
Jhamgat Tass & Tandoori,झम घट तास एन्ड तन्न्दुरी,83.9576963,28.2083544,,,,,,,,regional,,,,,,,,,,,,,,node/2087062784,
Parikar,परिकार,83.9580377,28.2085444,,,,,,,,regional,,,,,,,,,,,,,,node/2087062785,
Maya Pub & Restaurant,माया पब एन्ड रेस्टुरेन्ट,83.9572635,28.2107376,,,,,,,,,,,,,,,,,,,,,,node/2470837758,
Cafe Concerto,क्याफे कन्सर्टो,83.9605246,28.2059913,,,,,061463529,,,italian,,,,,,,,,,,,,,node/2470934301,
The Red Tomato,द रेड टोमटो रेस्टुरेन्ट (८०),83.9571735,28.2096319,Baidam Road,Pokhara,,33700,,,,chinese;indian;italian,,,,,,,,,,,,,80,node/2555552074,
Local BBQ,लोकल (वि.वि.कीउ),83.9595337,28.2135811,,,,,,,,,,,,,,no,yes,,,,,,,node/2805430664,
Asian Tea House,एसियन टि.हाउस,83.9573924,28.2111332,Baidam Road,Pokhara,6,,,,,,,,,,,,,,,,,,,node/2805465034,2023-03-20
Everest Steak House,एभरेस्ट स्टीक हाउस,83.9586182,28.2140141,,,,,,,,,,,,,,,,,,,,,,node/2805500021,
Honeyland hotel and Restaurant,,83.9643591,28.2044521,,,,,,,,regional,,,,,,,,,,,,,,node/3151985692,
Aankhi Jhyal Restaurant and Bar,आँखी झ्याल,83.9614439,28.2057081,,,,,,,,regional,,,,wlan,,,,,,,,,,node/3166136485,
Maili Bhanchha Ghar,मैली भान्छा घर,83.9649137,28.206492,,,,,,,,,,,,,,,,,,,,,,node/3397740260,
Lanhua,लन्हुवा,83.9600844,28.2063994,,,,,,,,chinese,,,,,,,,,,,,,,node/3469211654,
Bandipur Spring,बंदीपुर स्प्रिंग,83.9585148,28.2140536,,,,,,,,,,,,,,,,,,,,,,node/3480361309,
Akatsuki Japanese Restaurant,आकाट्सुकी जापानिज रेष्टुरेण्ट,83.9625574,28.2067242,,,,,,,,,,,,,,,,,,,,,,node/3488089622,
Black & White,ब्लाक एनड हुवाईट रेसटुरेन्ट,83.9612186,28.2059207,,,,,,,,,,,,,,,,,,,,,,node/3521349634,
Buddha Tours,बुध्द टुर्स,83.9611885,28.2058909,,,,,,,,,,,,,,,,,,,,,,node/3521349636,
Love Kush,लभ कुश,83.960604,28.2060485,,,,,,,,,,,,,,,,,,,,,,node/3521349645,
Pokhara Thakali Kitchen,पोखरा थाकाली किचेन,83.9616266,28.2058835,,,,,,,,thakali,,,,,,,,,,,,,,node/3521349650,
Fewa Crossroads,फेवा क्रसरोड,83.9572793,28.2114265,Baidam Road,Pokhara,,,,,,,,,,,,,,,,,,,,node/3634990902,
Peace Chinese Restaurant & Bar,पिस रेस्टुरेन्ट एंन्ड बार,83.9572666,28.2121495,,,,,,,,,,,,,,,,,,,,,,node/3634990911,
Punjabi Restaurant,पन्जाबी रेस्टुरेन्ट,83.9570209,28.2117876,,,,,+977 984-6025937,,,,,07:00-23:00,,,,,,,,,,,,node/3634990912,2023-10-07
Thakali Kitchen,थकाली किचेन,83.9574005,28.2129174,,,,,,,,,,,,,,,,,,,,,,node/3634990917,
"Double ""O""",डबल (०),83.9572817,28.2111279,,,,,,,,,,,,,,,,,,,,,,node/3635819233,
Once Upon a Time,ओन्स अपन अ टाइम रेस्टुरेन्ट,83.9571907,28.210346,Baidam Road,Pokhara,,,"61-461881,9846483016",www.onceuponatimepokhara.com,,,,,,,,,,,,,,,,node/3635819238,
Dragon,ड्रयागन रेस्टुरेन्ट,83.9568127,28.2101257,,,,,,,,chinese,,,,wlan,,,,,,,,,,node/3637654244,
Fewa Fusion,फेवा फिउजन,83.9568271,28.2105068,,,,,,,,,,,,,,,,,,,,,,node/3637654245,
Madhushala,मधुसला,83.9569585,28.2114413,,,,,,,,,,,,,,,,,,,,,,node/3637654255,
Nepali Kitchen,नेपाली किचेन,83.9575952,28.2077344,,,,,,,,,,,,,,,,,,,,,,node/3637654256,
Rainbow Restaurant & Royal Bar,रेनबो रेस्टुरेन्ट एन्ड रोयल बार,83.9575527,28.2080567,,,,,,,,,,,,,,,,,,,,,,node/3637654259,
Trisara,त्रिसरा रेस्टुरेन्ट,83.9560934,28.2105013,,,,,,,,,,,,,,,,,,,,,,node/3637654265,
20 Fourteen,२० (१४) रेस्टुरेन्ट,83.9568689,28.210085,,,,,,,,,,,,,,,,,,,,,,node/3637654274,
Black & White Organic Cafe,ब्लाक हुवाईट ओर्ग्यानिक क्याफें,83.9610491,28.2059871,,,,,,,,,,,,,,,,,,,,,,node/4062808917,
Godfather's Pizzeria-2,गड फादर्स पिज्जारिया-२,83.9569741,28.2094505,Baidam Road,,6,33700,+97761462691,https://godfatherspizzeria.com/,,italian_pizza,,Mo-Su 08:00-23:00,,wlan,,,,,,,,,,node/4117888889,
Shanti Restaurant,शान्ति रेस्तुरेन्ट,83.959067,28.2136056,,,,,,,,,,,,,,,,,,,,,,node/4180456603,
Chilly Restro and Bar,,83.9579971,28.2147625,Lakeside Marga,Pokhara,,,061463614,https://www.chillybar.com.np/,,,,Mo-Su 07:00-23:00,,,,no,,isolated,,,,,,node/4210701043,
Hot Sandwich Corner & Cheese Shop,हट स्याण्डविच कर्नर एन्ड चिज स़प,83.9580958,28.2102927,Pahari Mharg,,,,9856037706,,,sandwich,,Mo-Sa 07:00-21:00; Su 07:00-20:00,,wlan,,,,,,,,,,node/4268242366,
Tristar,ट्रीस्टर रेस्टुरेन्ट,83.9575037,28.2081957,Baidam Road,,,,,,,breakfast,,,,wlan,,,,,,,,,,node/4292019390,
New Family Hotel,निउ फेमिली होटल,83.9578737,28.2116343,Middle Path,,,,+977 980-1038307,,,burger;grill;chicken;friture,,Mo-Su 11:30-00:00,,wlan,,,,,,,,Luc Denies,,node/4311685089,
OR2K,ओ आर २के,83.9569981,28.2134749,Lakeside Marga,,,,,,,oriental;coffee_shop;turkish;breakfast;asian,,,,wlan,,,,,,yes,,,,node/4340739490,
,फेवा पाराडाइज रेस्टुरेन्ट & बार,83.9559493,28.2096651,barahi chowk,,,00977,061462183,http://www.fewaparadiserestaurantandbar.com,,,,Mo-Su 06:00-23:00,,wlan,,,,,,,,Pratap KC,,node/4398591191,
San Chon,लोखर्के पहाड गाउ,83.9589888,28.2109925,,,,,,,jetchs@daum.net,korean,,,,wlan,,,,,,,,,,node/4401895789,
Nepal Organic Café,,83.9570382,28.212888,,,,,,,,,,,,,,,,,,,,,,node/4406909462,
Yeti Restaurant,येती रेष्टुरेण्ट,83.9584021,28.2171238,,,,,,https://yetirestaurant.business.site/,,,,Mo-Su 06:00-22:00,limited,,no,yes,yes,yes,,,,,,node/4409617194,2025-08-14
Halal Food Khaja Ghar,,83.9636483,28.2075122,,,,,9846337400,,,,,,,,,,,,,,,,,node/4424600890,
,,83.9562549,28.2100404,,,,33700,,,,international;indian;asian;italian,,Mo-Su 07:00-23:00,,,,,,,,,,,,node/4455930889,
,,83.9622,28.2053178,Peaceful Road,,,,+977 980416801,,,,,,,,,,,,,,,,,node/4481102992,
,,83.9585163,28.2068399,,,,,,,,,,,,,,,,,,,,,,node/4499907589,
Crown Plaza Himalayas,,83.9636518,28.206793,Peaceful Road,Pokhara,49.9,,+977 61 462300,https://www.crownhimalayas.com,,american;asian;chicken;chinese;japanese;pasta,3,24/7,,wlan,,,,,yes,,,Manager,,node/4499960405,
Mo 2's Delights,,83.9576742,28.2085186,Barahi Path,,,,+9779810154801,,,,,We-Mo 09:00-23:00,,yes,,,,,,,,,,node/4527790192,
,,83.9621208,28.2124812,,,,,,,,,,,,,,yes,yes,,,,,,,node/4530969189,
Sabitane,,83.9601377,28.2107214,,,,,,,,asian,,,,,,yes,yes,,,,,,,node/4540699092,
,,83.9612535,28.2065983,,,,,,,,,,,,,,,,,,,,,,node/4544266890,
,,83.9616398,28.2121082,,,,,,,,,,,,,,,,,,,,,,node/4548897989,
Dream In The Pool,,83.9577832,28.2138728,,,,,,,,,,,,,,,,,,,,,,node/4551845190,
,,83.9582441,28.2140583,Baidam Road,,,,,,,breakfast;tea;sausage;asian;local;coffee_shop;chicken;indian;curry,,,,wlan,,,,,,,,Nepali,,node/4580876091,
,,83.9568351,28.2099563,,,,,,,,,,,,,,,,,,,,,,node/4582140890,
The Lemon Tree,,83.9572814,28.2115066,,,,,,www.lemontree.com.np,,,,,,,,,,,,,,,,node/4582140891,
,,83.9586233,28.2075037,,,,,,,,,,,,,,,,,,,,,,node/4583601503,
,,83.9567909,28.2123069,,,,,,http://facebook.com/metro.pokhara,,ice_cream;french;crepe;tea;coffee_shop;asian;american;pancake,,24/7,,wlan,,,,,,,,,,node/4583647490,
,,83.9638091,28.2044372,,,,,,,,,,,,,,,,,,,,,,node/4594527789,
Ruslan Nepali Kitchen,,83.9627854,28.2062635,Peaceful Road,Pokhara,,,,,,,,,,,,,,,,,,,,node/4634351629,
,,83.9624766,28.2122655,,,,,+977 985 6029309,,,sandwich;breakfast;tea;asian;noodles;curry;indian,,,,,,,,,yes,,,,,node/4664991391,
Godfather's Pizzeria,,83.9584915,28.2153312,Baidam Road,,,33700,061466501,https://godfatherspizzeria.com/,,pasta;pizza,,Mo-Su 08:00-20:30,,wlan,,,,,,,,,,node/4666740091,
Sukra-Bar,,83.9580495,28.2148931,Baidam Road,,6,,061-462633,,,international;tea;local;american;italian;curry;indian;mexican,,,,wlan,,,,,,,,,,node/4679793790,
,,83.9577471,28.2074902,,,,,,,,,,,,,,,,,,,,,,node/4690874491,
Natssul Korea,,83.963514,28.2043895,6 lakeside,,,,,natssul.com,,,,,,,,,,,,,,,,node/4693187292,
Hotel Orchind,,83.960145,28.2063789,,,,,,,,,,,,,,,,,,,,,,node/4693199193,
,,83.9572431,28.2133987,,,,,,,,,,,,,,,,,,,,,,node/4705068593,
Cafe Lake Yard,,83.9558912,28.2108567,,,,,,,,,,,,,,,,,,,,,,node/4705119589,
,,83.9571068,28.2130637,,,,,,,,,,,,,,,,,,,,,,node/4707617094,
Royal Mustang Thakali Bhanchha Ghar,,83.9574194,28.2136925,,,,,,,,,,,,yes,,,,,,,,,,node/4707617096,
Doko Resturant and Bar,,83.9570007,28.2118292,,,,,,,,,,,,,,,,,,,,,,node/4707636093,
Sagar Momo,,83.9569542,28.2141369,,,,,,,,regional,,,,,,,,,,,,,,node/4707636097,
,,83.9571213,28.213092,,,,,,,,,,,,,,,,,,,,,,node/4707657591,
,,83.9567994,28.2141969,,,,,,,,,,,,,,,,,,,,,,node/4707657592,
,,83.9587662,28.2180985,,,,,,,,burger;sandwich;pasta;local,,,,,no,yes,yes,yes,yes,,,,,node/4711668395,
Boomerang Restaurant,बुमेरयाङ रेस्टुरेन्ट,83.9568864,28.2097819,,,,,,,,,,,,wlan,,,,,,,,,,node/4721722990,2023-10-07
Lamsal Bhansa Ghar,,83.9590254,28.217697,,,,,,,,,,,,,,,,,,,,,,node/4740873024,
Landing Zone,,83.9587497,28.2172463,,,,,,,,,,su-mo 7:00-23:00,yes,,no,yes,yes,outside,,,,,,node/4757529223,2025-08-14
,,83.958255,28.2196412,,,,,,,,,,,,,no,yes,yes,outside,,,,,,node/4757530321,
,,83.9588359,28.2186393,,,,,,,,,,,,,no,yes,yes,yes,,,,,,node/4757530421,
Marwadi Restaurant,मारवाडी रेष्टुरेन्ट,83.958167,28.214647,Lakeside Marg,,,,,,,indian,,,,,,,,,yes,,,,,node/4763717122,2025-09-03
Sweet Memories,,83.9582953,28.2147787,,Pokhara,,,,,,local;breakfast,,,,,,,,,,,,,,node/4782221318,2023-04-02
High Tide,,83.9558506,28.2105823,,,,,,,,,,,,wlan,,,,,,,,,,node/4784129821,
Mustang Thakali Bhanchha Ghar,,83.9590422,28.2139357,,,,,,,,,,,,,,,,,,,,,,node/4790230923,
Mamma Mai Restaurant,,83.9585514,28.2139651,Baidam Road,,,,+97761526394,https://www.facebook.com/desitadkapokhara/,,indian;kebab;fish;curry;chicken;burger,,Mo-Su 11:00-23:00,,wlan,,,,,,,,,,node/4790245221,
Lakeside Sukuti House,,83.9590866,28.21053,,,,,,,,,,,,,,,,,,,,,,node/4791064221,
The Downtown Restro and Dance Bar,,83.9573899,28.2132394,,,,,,,,,,18:00-23:00,,,,,,,,,,,,node/4791074002,
Namaste Potala Restaurant,,83.9577345,28.213112,,,,,,,,,,,,,,,,,,,,,,node/4791101571,
Ruslan Lake Valley Restaurant and Bar,,83.9573396,28.213528,,,,,,,,,,,,,,,,,,,,,,node/4791101873,
Sichuan Cuisine Chinese Restaurant,,83.9582257,28.2128192,,,,,,,,chinese,,,,,,,,,,,,,,node/4791109690,
Laila's Resturant and Bar,,83.9572523,28.2128373,,,,,,,,,,,,,,,,,,,,,,node/4791109834,
Double View Restaurant and Bar,,83.9569921,28.2126018,,,,,,,,,,,,,,,,,,,,,,node/4791119640,
Fewa Lake Restaurant and Bar,,83.9648466,28.204311,,,,,,,,,,,,,,,,,,,,,,node/4791199891,
The China Town,द चाइना टाउन,83.9570094,28.2118448,Baidam Road,,,,,,,chinese,,,,,,,,,,,,,,node/4791229866,
Marpha Thakali Kitchen,मार्फा थकाली किचेन,83.9572579,28.2115476,,,,,,,,,,,,,,,,,,,,,,node/4791262039,
Anisha Resturant,,83.9621596,28.2065292,,,,,,,,,,,,,,,,,,,,,,node/4791299376,
Shankar Mo.Mo Restaurant,,83.958418,28.2103791,,,,,,,,,,,,,,,,,,,,,,node/4791306610,
Mongolian Restaurant,,83.9625751,28.2072148,,,,,,,,,,,,,,,,,,,,,,node/4791314050,
Tamuhita Restaurant Barbecue Korea,,83.9576669,28.2115797,,,,,,,,barbecue,,,,,,,,,,,,,,node/4791332627,
Ktm.MoMo Restaurant,,83.9562867,28.2123235,,,,,,,,,,,,,,,,,,,,,,node/4791341095,
Kathmandu Bhhancha Ghar,,83.9597328,28.2105115,,,,,,,,,,,,,,,,,,,,,,node/4791365940,
Harbor Restaurant,,83.9611689,28.2059073,,,,,,,,,,,,,,,,,,,,,,node/4791368712,
Sanju Restaurant,,83.9622454,28.2064513,,,,,,,,,,,,,,,,,,,,,,node/4791369927,
Pandey Restaurant,,83.9620293,28.2063538,,,,,,,,,,,,,,,,,,,,,,node/4791369932,
Cheap and Best Restaurant and Bar,,83.9620787,28.2062255,,,,,,,,,,,,,,,,,,,,,,node/4791369933,
Great Wall Chinese Restaurant,,83.9631418,28.2043702,,,,,,,,,,,,,,,,,,,,,,node/4791369986,
Meet Point Resturant,,83.9588849,28.2112623,,,,,,,,,,,,,,,,,,,,,,node/4791410143,
BB Resturant,,83.9648363,28.2062794,,,,,,,,,,,,,,,,,,,,,,node/4791411510,
Full Power Resturant,,83.9557386,28.2107762,,,,,,,,,,,,,,,,,,,,,,node/4791497363,
Neptalia restaurant,,83.9582919,28.2153857,,,,,061-460101,,,,,,,,,,,,,,,,,node/4800681197,
Welcome Sun Set View Restaurant and Bar,,83.9581417,28.2150996,,,,,,https://hotelpeaceplaza.com/,,,,,,yes,,,,,,,,,,node/4800681200,
Namaste Air Nandoj,,83.9582758,28.2175343,,,,,,,,,,24/7,,,no,yes,yes,,,,,,,node/4800701091,
Third Eye Restaurant and Thakali,,83.9585345,28.2163174,,,,,,,,,,,,,,,,,,,,,,node/4800708998,
Utopia,,83.9560821,28.2108602,,,,,,,,,,,,yes,,yes,,yes,,,,,,node/4800800626,
Beautiful View Inn,,83.9595717,28.2122322,,,,,,,,,,,,,,,,,,,,,,node/4800813797,
David Restro and Bar,,83.958413,28.2127641,,,,,,,,,,,,,,,,,,,,,,node/4800813799,
Lake Food India Kitchen,,83.9584532,28.2127289,,,,,,,,,,,,,,,,,,,,,,node/4800813804,
Stupa View Resturant,,83.9600088,28.212239,,,,,,,,,,,,,,,,,,,,,,node/4800813805,
Billy Bunter's Restaurant and Bar,,83.9585594,28.2164189,,,,,061-465722,,,,,,,,no,yes,yes,outside,,,,,,node/4800816708,
Family Restaurant,,83.9588231,28.2176898,,,,,,,,,,,,,,,,,,,,,,node/4800870883,
Beijing China Restaurant & Bar,,83.9582927,28.2148905,,,,,,,,,,,,,,,,,,,,,,node/4800893789,
Pokhara Chinese Restaurant,,83.9568932,28.2100412,,,,,,,,,,,,,,,,,,,,,,node/4800970677,
,,83.9647573,28.2061876,Ammat,,,,9807432980,,,,,,,,,,,,,,,,,node/4831907221,
Lumuma,,83.9578569,28.2197063,,,,,,,,french,,,,,,,,,,,,,,node/4851048821,
,,83.9575778,28.2075832,,,,,,,,,,,,,,,,,,,,,,node/4905252622,
,,83.9570597,28.2090621,,,,,061456271,https://byanjan.com/,,,,,,wlan,,,,,,,,,,node/4905255422,
,,83.9570499,28.2115526,,,,,,,,,,,,,,,,,,,,,,node/4905255521,
,,83.9570646,28.2112742,,,,,,,,,,,,,,,,,,,,,,node/4905255522,
,,83.9558409,28.2102122,,,,,,,,,,,,,,,,,,,,,,node/4905255523,
,,83.9568462,28.2088904,,,,,,,,,,,,,,,,,,,,,,node/4905274521,
,,83.9571817,28.2093776,,,,,,,,,,,,,,,,,,,,,,node/4905274623,
Hot Sandwich,,83.9576532,28.2116789,,,,,,,,,,,,,,,,,,,,,,node/4916454475,
Bamboo Paradise,,83.9572081,28.2162178,Lack side,,,,,,,,,,limited,,no,yes,yes,separated,,,,,,node/4932164921,
,,83.9574057,28.2169305,,,,,,,,,,,,,no,yes,yes,outside,,,,,,node/4933498721,
New Fewa Restaurant,,83.9579242,28.2190759,,,,,,,,,,,yes,wlan,no,yes,yes,yes,,,,,,node/4933498722,2025-08-18
,,83.9579491,28.2196343,,,,,,,,,,,,,no,yes,yes,outside,,,,,,node/4933526321,
,,83.9627345,28.2119138,,,,,,,,,,,,,,,,,,,,,,node/4934423024,
,,83.9585342,28.2154925,,,,,,,,,,,,,,,,,,,,,,node/4934426222,
El Bocaíto Español y Olé!,,83.9576482,28.2199865,Lakeside Marga,,6,,+977 98251567216,http://www.elbocaitoespañol.com,,,,,yes,,no,yes,yes,yes,,,,,,node/4934513525,2025-08-06
Himalayan Kitchen,,83.9606144,28.2122453,,,,,,,,,,,,,,,,,,,,,,node/4936705622,
Rest Point,,83.9577571,28.2198525,,,,,,,,,,,yes,,no,yes,yes,yes,,,,,,node/4942542721,2025-08-06
Lake Mandala Lounge,,83.9577422,28.2142135,,,,,,,,,,Su-Sa 7:00-11:00,,,,,,,,,,,,node/4957716421,
Puja Khaja Ghar,,83.9649788,28.2074535,,,,,,,,,,,,,,,,,,,,,,node/5104525762,
Anish Khaja Ghar,,83.9626204,28.2100148,,,,,,,,,,,,,,,,,,,,,,node/5104541377,
Aayush Khaja Ghar,,83.963179,28.2089674,,,,,,,,,,,,,,,,,,,,,,node/5104541384,
Amber Kitchen and A.S. Catering Service,,83.9636269,28.2088342,,,,,,,,,,,,,,,,,,,,,,node/5104541386,
Piya Restaurant,,83.9619613,28.2109204,,,,,,,,,,,,,,no,yes,,,,,,,node/5104554481,
Kushal Khaja Ghar,,83.9619673,28.210881,,,,,,,,,,,,,,,,,,,,,,node/5104554482,
Aashika Khaja Ghar,,83.9620236,28.2108107,,,,,,,,,,,,,,,,,,,,,,node/5104554485,
Bhojan Griha,,83.9571529,28.2100502,,,,,,,,regional,,,,,,,,,,,,,,node/5138819138,
,,83.9629201,28.2074838,Ambot Chowk,,6,,+9779816185421,,,diner;indian;breakfast;local,,Mo-Su 06:00-22:00,,,,,,,,,,,,node/5155431022,
,,83.9568788,28.2104051,,,,,,,,,,,,,,,,,,,,,,node/5170291921,
,,83.9561316,28.2098977,,,,,,https://www.soulhimalayatreks.com/,,asian,,,,wlan,,,,,,,,Welcome to nepal,,node/5223032621,
,,83.9589908,28.2136043,,,,,,,,,,,,wlan,,,,,,,,,,node/5229688023,
,,83.9593846,28.2107809,Pahari Mharg,,,,9841313272,,,,,,,,,,,,,,,,,node/5273548622,
,,83.959762,28.2086319,,,,,,,,,,,,,,,,,,,,,,node/5282219121,
Aozora,,83.9602841,28.2133274,,,,,,,,japanese,,,,,,yes,yes,,,,,,,node/5298738717,
Lake Way Momo Center,,83.9571245,28.2141121,,,,,,,,regional,,,,,,,,,,,,,,node/5298738718,
Kathmandu Momo Center,,83.9570682,28.2141357,,,,,,,,regional,,,,,,,,,,,,,,node/5298738719,
Be Happy Restaurant,,83.9581882,28.2146848,,,,,,,,local,,,,,,,,,,,,,,node/5325444221,
PP Local Indian & Chinese Restaurant,,83.9588537,28.2176011,,,,,+977 61 463272,,,nepalese,,Mo-Su 07:00-22:00,limited,wlan,no,yes,yes,yes,,,,Mr buddhi Prasad neupane,,node/5370354721,
,,83.9582761,28.2114416,,,,,,,,,,,,,,,,,,,,,,node/5412522921,
Sabina MoMo,,83.9578156,28.2197651,,,,,,,,,,,,,,,,,,,,,,node/5425866923,
,,83.962432,28.2056526,,,,,9856032188,,,regional,,,,,,,,,,,,,,node/5437769473,
Tamu restaurant,,83.9635304,28.2071678,,,,,,,,,,,,,,,,,,,,,,node/5437769475,
Bella's Garden,,83.9637342,28.2046126,,,,,+977-9816142851,,,,,,,,,,,,,,,,,node/5458641698,
Pandey Restaurant,,83.9621691,28.2061632,,,,,,,,,,,,,,,,,,,,,,node/5458862996,
Mimosa restaurant Bar,,83.9614678,28.2069539,,,,,,,,,,,,,,,,,,,,,,node/5463338426,
Kingsway Restaurant,,83.9609662,28.2074313,,,,,,,,,,,,,,,,,,,,,,node/5463386015,
,,83.9577985,28.2086108,,,,,,,,,,,,,,,,,,,,,,node/5466336819,
,,83.9582598,28.2085422,,,,,,,,,,,,,,,,,,,,,,node/5466340121,
,,83.9583537,28.2085635,,,,,,,,,,,,,,,,,,,,,,node/5466340122,
,,83.9572582,28.2090526,,,,,,,,,,,,,,,,,,,,,,node/5466665237,
,,83.9574753,28.2085966,,,,,,https://openhousepokhara.com/,,,,,,,,,,,,,,,,node/5466665250,
Paila hostel,,83.9575222,28.2085162,,,,,,,,,,,,,,,,,,,,,,node/5466665260,2025-12-17
,,83.9607181,28.2072789,,,,,,,kishangurung7777@gmail.com,,,,,,,,,,,,,,,node/5470406023,
,,83.9571547,28.2097832,,,,,,,,,,,,,,,,,,,,,,node/5474877401,
Manisha Restaurant,,83.9602923,28.2108071,,,,,,,,,,,,,,,,,,,,,,node/5474987534,
,,83.9594024,28.2105301,,,,,,,pasangdee@hotmail.com,,,,,,,,,,,,,,,node/5481706655,
Delight Restaurant,,83.9622884,28.2106463,,,,,,,subashstha23@gmail.com,,,,,,,,,,,,,,,node/5481706662,
Samrat Tandoori Restaurant,,83.9576027,28.2115677,,,,,,,,indian,,,,,,,,,,,,,,node/5481863445,
Almond's Cafe & Restaurant,,83.9572781,28.2110311,,,,,,,,,,,,,,,,,,,,,,node/5481863453,
Fewa Thakali Bhancha Ghar,फेवा थकाली भान्छा घर,83.9572916,28.2113975,Lakeside Marg,,,,061-462476,,fewa.crossroads@hotmail.com,regional,,Mo-Su 11:00-21:00,,,,,,,,,,,,node/5481883903,
Han Kook Sarang restaurant,,83.9573586,28.2111304,,,,,,www.hankooksarang.pkr.com,hankooksarang@koreamail.com,korean,,,,,,,,,,,,,,node/5481883904,2023-03-20
,,83.9574552,28.2118088,,,,,,,,,,07:00-22:00,,,,,,,,,,,,node/5502440195,
,,83.96047,28.2132352,,,,,,,,,,,,,,,,,,,,,,node/5504672554,
,,83.9633158,28.2119423,,,,,,,,,,,,,,,,,,,,,,node/5505084138,
,,83.963187,28.2120108,,,,,,,,,,,,,,,,,,,,,,node/5505084140,
,,83.9629416,28.2120865,,,,,,,,,,,,,,,,,,,,,,node/5505084142,
,,83.9628437,28.2121267,,,,,,,,,,,,,,,,,,,,,,node/5505084143,
Moonlight Fastfood & Resturant,,83.9621249,28.2123997,,,,,,https://moonlightfastfood.com/,,,,,,,,,,,,,,,,node/5505084148,
,,83.9566693,28.2142503,,,,,,,,regional,,,,,,,,,,,,,,node/5507669674,
,,83.9567497,28.2142172,,,,,,,,regional,,,,,,,,,,,,,,node/5507669675,
local Mo Mo,,83.9568624,28.2141865,,,,,,,,regional,,,,,,,,,,,,,,node/5507669676,
,,83.957018,28.2141463,,,,,,,,regional,,,,,,,,,,,,,,node/5507669677,
,,83.95749,28.2139738,,,,,,,,,,,,,,,,,,,,,,node/5507669681,
Buddhi Home Holiday Cafe,,83.9578655,28.2144867,,,,,,,,,,,,,,,,,,,,,,node/5513635485,
,,83.9580184,28.2148246,,,,,,,,,,,,,,,,,,,,,,node/5513700477,
,,83.9583296,28.2155573,,,,,,,,german;tea;cake;donut;breakfast;coffee_shop,,,,,,,,,yes,,,,,node/5514147240,
Ruzila Cafe,,83.9574077,28.2171681,,,,,,,,,,,limited,,no,yes,yes,outside,,,,,,node/5520022749,2025-08-14
Himalayan cafe,,83.958284,28.219021,,,,,,,,,,,,,no,no,yes,yes,,,,,,node/5520239924,
You and I,,83.958638,28.2186369,,,,,,,,,,,limited,,no,yes,yes,yes,,,,,,node/5520239929,
Neighbourhood Restro & Bar,,83.9571517,28.2097054,,,,,,,,,,,,,,,,,,,,,,node/5537513190,
Moondance Resturant and Bar,मुन डान्स रेस्टुरेन्ट एन्ड बार,83.957598,28.2080943,,,,,,,,,,,,,,,,,,,,,,node/5537615880,2023-10-07
Paleti Sukuti ghar,,83.9627285,28.2129856,,,,,,,,,,,,,,,,,,,,,,node/5543120565,
Ice Cream Khaja Ghar,,83.9626592,28.2127165,,,,,,,,,,,,,,no,yes,,,,,,,node/5543120567,
,,83.9626427,28.2126322,,,,,,,,,,,,,,,,,,,,,,node/5543120568,
,,83.9613052,28.2065075,,,,,,,,asian,,,,,,,,,,,,,,node/5556647323,
,,83.9572552,28.211272,,,,,,,,,,,,,,,,,,,,,,node/5584280623,
,,83.9592327,28.2111086,Samikopatan,,,,,,,burger;breakfast;grill;asian;chinese;chicken;indian;curry,,,,,,,,,,,,,,node/5834405686,
Hotel Point,,83.9590237,28.2083558,,,,,,,,,,,,"cellular,wlan",,,,,,,,,,node/6047608809,
Dunga,,83.9572476,28.2089896,,,,,,,,,,,,,,,,,,,,,,node/6047623635,
Little Windows Bar & Restaurant,,83.9574299,28.2132708,Lakeside Marg,,,,,,,international,,,,,,,,,yes,yes,yes,,,node/6068578717,
,,83.9584159,28.2069097,,,,,,,,indian,,,,,,,,,,,,,,node/6070854302,
,,83.9587798,28.2179478,,,,,,,,,,,,,no,yes,yes,outside,,,,,,node/6098091385,
,,83.9568833,28.2124401,,,,,,,,korean,,,,wlan,,,,,,,,,,node/6210419186,
Darshan BBQ center,,83.9588529,28.2175054,19 street,,,33700,+9779856054406,,,,,Mo-Su 09:00-23:00,,wlan,no,yes,yes,yes,,,,,,node/6780846285,
,,83.9590639,28.2176497,Lakeside Marg,,,33700,+9779856054406,,,,,,,wlan,,,,,,,,,,node/6780846286,
,,83.9592958,28.2082181,,,,,,,,diner;russian;noodles;sandwich;sausage;coffee_shop;curry;chinese;tea;burger;pasta;breakfast;international;indian,,Mo-Su 06:00-23:00,,wlan,,,,,,yes,,,,node/6808356585,
,,83.9624649,28.2045406,,,,,,,,,,,,,,,,,,,,,,node/6823095885,
,,83.9621679,28.2108831,,,,,,,,local,,24/7,,,,,,,,,,,,node/6899736386,
,,83.9619279,28.2109577,,,,,,,,local,,24/7,,,,,,,,,,,,node/6899739185,
,,83.9585079,28.215417,,,,,,,,,,,,,,,,,,,,,,node/6908541288,
,,83.9621753,28.2108308,Baidam Road,,Lakeside-6,,,,,local,,,,,,,,,,,,,,node/6942588587,
,,83.9569237,28.2134754,,,,,,,,,,,,,,,,,,,,,,node/6964205285,
,,83.9604802,28.2152638,,,,,,,,,,,,,,,,,,,,,,node/7005585085,
,,83.9609262,28.2074866,,,,,,,,chinese;tea;fish;local,,,,,,,,,,,,,,node/7025508985,
,,83.9595219,28.2081675,"13th Street,Barahi Marg",,,33700,061466933,,,diner;breakfast,,Mo-Su 09:00-21:00,,wlan,,,,,,,,,,node/7114213186,
Mitho Momo,मिठो मोमो,83.9591203,28.2175476,Lakeside Marg,,,,,,,dumplings,,,limited,,no,yes,yes,yes,,,,,,node/7168315498,
Silver Spoon,,83.9586291,28.2158693,,,,,,,,,,,,,,,,,,,,,,node/7230882985,
,,83.9570065,28.2092039,,,,,,,,,,,,,,,,,,,,,,node/7236276986,
,,83.9628295,28.2110739,,,,,9806601989,,,,,,,,,no,yes,,,,,,,node/7354938985,
Vita,,83.9582939,28.2154337,Lakeside-6,,,,,,,,,,,,,,,,,,,,,node/7677211986,
Hotel Fewa Heritage,,83.9582911,28.2155034,,,,,9825375672,,,,,,,,,,,,,,,,,node/9035536617,
€Korean Chicken Sherbet & Beer,,83.9577945,28.2138661,,,,,,,,,,,,,,,,,,,,,,node/9510143019,
,,83.9571937,28.2086343,,,,,,,,indian,,,,,,,,,yes,,,,,node/9570026617,
,,83.9569318,28.2106975,,,,,,,,,,,,,,,,,,,,,,node/9572294118,
Home Town Restaurant & Bar,,83.9630633,28.2088283,,,,,,,,,,,,,,,,,,,,,,node/9701837281,
,,83.9615833,28.2127397,Baidam Road,,,,,,,,,,,,,yes,yes,,,,,,,node/10027653918,
,,83.9602748,28.2063761,,,,,,,,,,,,,,,,,,,,,,node/10120837518,
Green Leaf,,83.9570657,28.2158837,,,,,,,,,,,limited,,no,yes,yes,outside,,,,,,node/10154643349,
Blue Lake Restaurant & Naan House,,83.9587488,28.2162065,,,,,,,,,,,,,,,,,,,,,,node/10187553171,
,,83.9585649,28.2126983,Lalupate Marg /17th Street,,,,,,,,,24/7,,,,,,,,,,,,node/10698600706,
,,83.9592131,28.2127202,Lalupate Marg /17th Street,,,,,,,,,24/7,,,,,,,,,,,,node/10699361805,
,,83.9585995,28.2127129,Lalupate Marg /17th Street,,,,,,,,,24/7,,wlan,,,,,,,,,,node/10708133805,
,,83.9604146,28.2144952,,,,,,,,italian;mediterranean,,,,,,,,,,,,,,node/10782021523,
,,83.9580643,28.2187715,Baidam Road,,,33700,,,,,,,,wlan,,,,,,,,,,node/10889887005,
,,83.9598156,28.2065498,,,,,,,,,,,,,,,,,,,,,,node/11052261005,
,,83.9592093,28.2142137,,,,,,,,,,Mo-Su 09:00-21:30,,,,,,,,,,,,node/11122153905,
,,83.9572076,28.2133372,,,,,,,,,,,,,,,,,,,,,,node/11698040969,
,,83.9575414,28.2082523,,,,,,,,indian,,,,,,,,,,,,,,node/11753086270,
,,83.9576274,28.2200672,,,,,,,,,,,,,,,,,,,,,,node/11880465969,
Shiwani Restaurant Fewa Fish,,83.9565476,28.2143244,,,,,,,,,,,,,,,,,,,,,,node/12039494711,
Kafle Naan House,,83.9574237,28.209197,,,,,,,,,,,,,,,,,,,,,,node/12412597101,
,,83.9556642,28.2114699,,,,,,,,,,,,,,,,,,,,,,node/12528807104,
,,83.9573743,28.217084,,,,,,,,,,,,,,,,,,,,,,node/12528807302,
Padma,,83.9613566,28.2057559,,,,,,,,vietnamese,,,,,,,,,,,,,,node/13064700136,
Green lake,,83.9575842,28.2178301,,,,,,,,,,,,,,,,,,,,,,node/13070132057,
The grounds,,83.9575632,28.2177035,,,,,,,,,,,,,,,,,,,,,,node/13070159537,
Family feast,,83.957906,28.2169555,,,,,,,,chinese,,,,,,,,,,,,,,node/13070202525,
Vegan way 15 Street,,83.958317,28.2104513,,,,,9816182583,https://veganwaycafe.com/,,asian;breakfast;burger;coffee_shop;curry;pizza;sandwich;regional;juice;salad;dessert,,Mo-Su 06:00-21:00,,wlan,,no,yes,,yes,yes,,,,node/13251086962,2025-10-23
Sarduba Tibetan Restaurant,,83.9585338,28.2071768,Lakeside Marg,,,,,,,,,,,,,,,,,,,,,node/13283244601,
Yak Kharka Chulo,,83.9639703,28.20469,"5th Street,Ammat",,,,,,,,,,,,,,,,,,,,,node/13286723601,
Bibek Local Restaurant,,83.9582191,28.2191886,,,,,,,,,,,,,,,,,,,,,,node/13347716921,
Ramesh Khana Khar,,83.961824,28.2127004,,,,,,,,,,,,,,,,,,,,,,node/13374010501,
Himalayan Dorjey Restaurant,,83.9580027,28.2142808,,,,,,,,,,,,,,,,,,,,,,node/13375620801,
Chautari Thakali Bhanchha Ghar,,83.9574763,28.2084499,,,,,,,,,,,,,,,,,,,,,,node/13383282980,
